[
  {
    "node_id": "MM_EC_001",
    "name": "Gen. T. de Leon NHS Covered Court",
    "barangay": "Gen. T. de Leon",
    "lat": 14.6528,
    "lon": 120.9745,
    "elevation": 14.2,
    "lgu": "Caloocan",
    "district": "Caloocan",
    "capacity": 2600,
    "source": "synthetic",
    "official": false
  },
  {
    "node_id": "MM_EC_002",
    "name": "Camarin Community Multi-Purpose Hall",
    "barangay": "Camarin",
    "lat": 14.6618,
    "lon": 120.9678,
    "elevation": 15.8,
    "lgu": "Caloocan",
    "district": "Caloocan",
    "capacity": 2600,
    "source": "synthetic",
    "official": false
  },
  {
    "node_id": "MM_EC_003",
    "name": "San Roque Elementary School Gymnasium",
    "barangay": "San Roque",
    "lat": 14.6405,
    "lon": 120.9718,
    "elevation": 12.1,
    "lgu": "Caloocan",
    "district": "Caloocan",
    "capacity": 2600,
    "source": "synthetic",
    "official": false
  },
  {
    "node_id": "MM_EC_004",
    "name": "Bagong Silang Sports Complex",
    "barangay": "Bagong Silang",
    "lat": 14.6721,
    "lon": 120.9648,
    "elevation": 16.3,
    "lgu": "Caloocan",
    "district": "Caloocan",
    "capacity": 2650,
    "source": "synthetic",
    "official": false
  },
  {
    "node_id": "MM_EC_005",
    "name": "Caloocan City Covered Court",
    "barangay": "Deparo",
    "lat": 14.6491,
    "lon": 120.9791,
    "elevation": 13.5,
    "lgu": "Caloocan",
    "district": "Caloocan",
    "capacity": 2650,
    "source": "synthetic",
    "official": false
  },
  {
    "node_id": "MM_EC_006",
    "name": "Grace Park Elementary School Hall",
    "barangay": "Grace Park",
    "lat": 14.6341,
    "lon": 120.9768,
    "elevation": 11.9,
    "lgu": "Caloocan",
    "district": "Caloocan",
    "capacity": 2600,
    "source": "synthetic",
    "official": false
  },
  {
    "node_id": "MM_EC_007",
    "name": "Las Piñas City Sports Complex",
    "barangay": "Pamplona Tres",
    "lat": 14.4508,
    "lon": 120.9927,
    "elevation": 18.4,
    "lgu": "Las Piñas",
    "district": "Las Piñas",
    "capacity": 2600,
    "source": "synthetic",
    "official": false
  },
  {
    "node_id": "MM_EC_008",
    "name": "Pamplona Elementary School Gymnasium",
    "barangay": "Pamplona Dos",
    "lat": 14.4428,
    "lon": 121.0038,
    "elevation": 19.7,
    "lgu": "Las Piñas",
    "district": "Las Piñas",
    "capacity": 2650,
    "source": "synthetic",
    "official": false
  },
  {
    "node_id": "MM_EC_009",
    "name": "BF Resort Village Covered Court",
    "barangay": "BF Resort",
    "lat": 14.4617,
    "lon": 120.9879,
    "elevation": 17.2,
    "lgu": "Las Piñas",
    "district": "Las Piñas",
    "capacity": 2650,
    "source": "synthetic",
    "official": false
  },
  {
    "node_id": "MM_EC_010",
    "name": "Zapote Nacional Elementary School",
    "barangay": "Zapote",
    "lat": 14.4362,
    "lon": 120.9982,
    "elevation": 20.1,
    "lgu": "Las Piñas",
    "district": "Las Piñas",
    "capacity": 2450,
    "source": "synthetic",
    "official": false
  },
  {
    "node_id": "MM_EC_011",
    "name": "Talon Tres Barangay Hall Annex",
    "barangay": "Talon Tres",
    "lat": 14.4699,
    "lon": 120.9816,
    "elevation": 16.8,
    "lgu": "Las Piñas",
    "district": "Las Piñas",
    "capacity": 2450,
    "source": "synthetic",
    "official": false
  },
  {
    "node_id": "MM_EC_012",
    "name": "Almanza Uno Elementary School Hall",
    "barangay": "Almanza Uno",
    "lat": 14.4531,
    "lon": 121.0092,
    "elevation": 21.3,
    "lgu": "Las Piñas",
    "district": "Las Piñas",
    "capacity": 2450,
    "source": "synthetic",
    "official": false
  },
  {
    "node_id": "MM_EC_013",
    "name": "Makati Science High School Gymnasium",
    "barangay": "Bangkal",
    "lat": 14.5551,
    "lon": 121.0248,
    "elevation": 24.6,
    "lgu": "Makati",
    "district": "Makati",
    "capacity": 2450,
    "source": "synthetic",
    "official": false
  },
  {
    "node_id": "MM_EC_014",
    "name": "Guadalupe Nuevo Elementary School",
    "barangay": "Guadalupe Nuevo",
    "lat": 14.5625,
    "lon": 121.0182,
    "elevation": 22.9,
    "lgu": "Makati",
    "district": "Makati",
    "capacity": 2450,
    "source": "synthetic",
    "official": false
  },
  {
    "node_id": "MM_EC_015",
    "name": "Palanan Elementary School Hall",
    "barangay": "Palanan",
    "lat": 14.5507,
    "lon": 121.0325,
    "elevation": 23.1,
    "lgu": "Makati",
    "district": "Makati",
    "capacity": 2450,
    "source": "synthetic",
    "official": false
  },
  {
    "node_id": "MM_EC_016",
    "name": "Pembo Elementary School Gymnasium",
    "barangay": "Pembo",
    "lat": 14.5692,
    "lon": 121.0093,
    "elevation": 21.4,
    "lgu": "Makati",
    "district": "Makati",
    "capacity": 2450,
    "source": "synthetic",
    "official": false
  },
  {
    "node_id": "MM_EC_017",
    "name": "Bangkal Covered Court",
    "barangay": "Bangkal",
    "lat": 14.5416,
    "lon": 121.0271,
    "elevation": 25.2,
    "lgu": "Makati",
    "district": "Makati",
    "capacity": 2450,
    "source": "synthetic",
    "official": false
  },
  {
    "node_id": "MM_EC_018",
    "name": "Comembo Barangay Hall Multi-Purpose",
    "barangay": "Comembo",
    "lat": 14.5757,
    "lon": 121.0159,
    "elevation": 20.8,
    "lgu": "Makati",
    "district": "Makati",
    "capacity": 2450,
    "source": "synthetic",
    "official": false
  },
  {
    "node_id": "MM_EC_019",
    "name": "Malabon Elementary School Hall",
    "barangay": "Longos",
    "lat": 14.6625,
    "lon": 120.9583,
    "elevation": 6.2,
    "lgu": "Malabon",
    "district": "Malabon",
    "capacity": 2450,
    "source": "synthetic",
    "official": false
  },
  {
    "node_id": "MM_EC_020",
    "name": "Tinajeros National High School Gym",
    "barangay": "Tinajeros",
    "lat": 14.6707,
    "lon": 120.9547,
    "elevation": 5.8,
    "lgu": "Malabon",
    "district": "Malabon",
    "capacity": 2500,
    "source": "synthetic",
    "official": false
  },
  {
    "node_id": "MM_EC_021",
    "name": "Acacia Barangay Covered Court",
    "barangay": "Acacia",
    "lat": 14.6561,
    "lon": 120.9615,
    "elevation": 6.9,
    "lgu": "Malabon",
    "district": "Malabon",
    "capacity": 2500,
    "source": "synthetic",
    "official": false
  },
  {
    "node_id": "MM_EC_022",
    "name": "Tañong Covered Court",
    "barangay": "Tañong",
    "lat": 14.6746,
    "lon": 120.9571,
    "elevation": 5.4,
    "lgu": "Malabon",
    "district": "Malabon",
    "capacity": 2500,
    "source": "synthetic",
    "official": false
  },
  {
    "node_id": "MM_EC_023",
    "name": "Panghulo Elementary School Hall",
    "barangay": "Panghulo",
    "lat": 14.6488,
    "lon": 120.9597,
    "elevation": 7.1,
    "lgu": "Malabon",
    "district": "Malabon",
    "capacity": 2500,
    "source": "synthetic",
    "official": false
  },
  {
    "node_id": "MM_EC_024",
    "name": "Longos Elementary School Gymnasium",
    "barangay": "Longos",
    "lat": 14.6539,
    "lon": 120.9574,
    "elevation": 6.5,
    "lgu": "Malabon",
    "district": "Malabon",
    "capacity": 2500,
    "source": "synthetic",
    "official": false
  },
  {
    "node_id": "MM_EC_025",
    "name": "Mandaluyong Science High School Gym",
    "barangay": "Addition Hills",
    "lat": 14.5788,
    "lon": 121.0471,
    "elevation": 26.4,
    "lgu": "Mandaluyong",
    "district": "Mandaluyong",
    "capacity": 2500,
    "source": "synthetic",
    "official": false
  },
  {
    "node_id": "MM_EC_026",
    "name": "Addition Hills Elementary School Hall",
    "barangay": "Addition Hills",
    "lat": 14.5845,
    "lon": 121.0392,
    "elevation": 24.8,
    "lgu": "Mandaluyong",
    "district": "Mandaluyong",
    "capacity": 2500,
    "source": "synthetic",
    "official": false
  },
  {
    "node_id": "MM_EC_027",
    "name": "Highway Hills Elementary Covered Court",
    "barangay": "Highway Hills",
    "lat": 14.5716,
    "lon": 121.0527,
    "elevation": 27.2,
    "lgu": "Mandaluyong",
    "district": "Mandaluyong",
    "capacity": 2500,
    "source": "synthetic",
    "official": false
  },
  {
    "node_id": "MM_EC_028",
    "name": "Mauway Elementary School Hall",
    "barangay": "Mauway",
    "lat": 14.5872,
    "lon": 121.0444,
    "elevation": 25.6,
    "lgu": "Mandaluyong",
    "district": "Mandaluyong",
    "capacity": 2500,
    "source": "synthetic",
    "official": false
  },
  {
    "node_id": "MM_EC_029",
    "name": "Hagdang Bato Barangay Multi-Purpose Hall",
    "barangay": "Hagdang Bato",
    "lat": 14.5657,
    "lon": 121.0501,
    "elevation": 28.1,
    "lgu": "Mandaluyong",
    "district": "Mandaluyong",
    "capacity": 2500,
    "source": "synthetic",
    "official": false
  },
  {
    "node_id": "MM_EC_030",
    "name": "Plainview Elementary School Hall",
    "barangay": "Plainview",
    "lat": 14.5731,
    "lon": 121.0492,
    "elevation": 27.6,
    "lgu": "Mandaluyong",
    "district": "Mandaluyong",
    "capacity": 2350,
    "source": "synthetic",
    "official": false
  },
  {
    "node_id": "MM_EC_031",
    "name": "Arroceros Forest Park Community Hall",
    "barangay": "Ermita",
    "lat": 14.5991,
    "lon": 120.9848,
    "elevation": 5.3,
    "lgu": "Manila",
    "district": "Manila",
    "capacity": 2350,
    "source": "synthetic",
    "official": false
  },
  {
    "node_id": "MM_EC_032",
    "name": "Paco Elementary School Gymnasium",
    "barangay": "Paco",
    "lat": 14.5846,
    "lon": 120.9904,
    "elevation": 6.1,
    "lgu": "Manila",
    "district": "Manila",
    "capacity": 2350,
    "source": "synthetic",
    "official": false
  },
  {
    "node_id": "MM_EC_033",
    "name": "Sampaloc Elementary School Hall",
    "barangay": "Sampaloc",
    "lat": 14.6037,
    "lon": 120.9791,
    "elevation": 7.8,
    "lgu": "Manila",
    "district": "Manila",
    "capacity": 2350,
    "source": "synthetic",
    "official": false
  },
  {
    "node_id": "MM_EC_034",
    "name": "Malate Covered Court",
    "barangay": "Malate",
    "lat": 14.5916,
    "lon": 120.9736,
    "elevation": 4.9,
    "lgu": "Manila",
    "district": "Manila",
    "capacity": 2350,
    "source": "synthetic",
    "official": false
  },
  {
    "node_id": "MM_EC_035",
    "name": "Sta. Mesa Elementary School Hall",
    "barangay": "Sta. Mesa",
    "lat": 14.6081,
    "lon": 120.9824,
    "elevation": 8.2,
    "lgu": "Manila",
    "district": "Manila",
    "capacity": 2350,
    "source": "synthetic",
    "official": false
  },
  {
    "node_id": "MM_EC_036",
    "name": "Tondo Sports Complex Hall",
    "barangay": "Tondo",
    "lat": 14.5771,
    "lon": 120.9881,
    "elevation": 5.6,
    "lgu": "Manila",
    "district": "Manila",
    "capacity": 2350,
    "source": "synthetic",
    "official": false
  },
  {
    "node_id": "MM_EC_037",
    "name": "Muntinlupa Sports Complex Hall",
    "barangay": "Poblacion",
    "lat": 14.4082,
    "lon": 121.0459,
    "elevation": 28.4,
    "lgu": "Muntinlupa",
    "district": "Muntinlupa",
    "capacity": 2350,
    "source": "synthetic",
    "official": false
  },
  {
    "node_id": "MM_EC_038",
    "name": "Alabang Elementary School Gymnasium",
    "barangay": "Alabang",
    "lat": 14.3927,
    "lon": 121.0381,
    "elevation": 32.7,
    "lgu": "Muntinlupa",
    "district": "Muntinlupa",
    "capacity": 2350,
    "source": "synthetic",
    "official": false
  },
  {
    "node_id": "MM_EC_039",
    "name": "Tunasan Elementary School Hall",
    "barangay": "Tunasan",
    "lat": 14.4237,
    "lon": 121.0515,
    "elevation": 26.1,
    "lgu": "Muntinlupa",
    "district": "Muntinlupa",
    "capacity": 2350,
    "source": "synthetic",
    "official": false
  },
  {
    "node_id": "MM_EC_040",
    "name": "Buli National High School Gym",
    "barangay": "Buli",
    "lat": 14.4159,
    "lon": 121.0392,
    "elevation": 27.9,
    "lgu": "Muntinlupa",
    "district": "Muntinlupa",
    "capacity": 2850,
    "source": "synthetic",
    "official": false
  },
  {
    "node_id": "MM_EC_041",
    "name": "Bayanan Elementary School Hall",
    "barangay": "Bayanan",
    "lat": 14.3881,
    "lon": 121.0426,
    "elevation": 30.2,
    "lgu": "Muntinlupa",
    "district": "Muntinlupa",
    "capacity": 2850,
    "source": "synthetic",
    "official": false
  },
  {
    "node_id": "MM_EC_042",
    "name": "Sucat National High School Gymnasium",
    "barangay": "Sucat",
    "lat": 14.4315,
    "lon": 121.0471,
    "elevation": 25.8,
    "lgu": "Muntinlupa",
    "district": "Muntinlupa",
    "capacity": 2850,
    "source": "synthetic",
    "official": false
  },
  {
    "node_id": "MM_EC_043",
    "name": "Navotas Science High School Hall",
    "barangay": "Northbay Blvd. North",
    "lat": 14.6615,
    "lon": 120.9426,
    "elevation": 3.8,
    "lgu": "Navotas",
    "district": "Navotas",
    "capacity": 2850,
    "source": "synthetic",
    "official": false
  },
  {
    "node_id": "MM_EC_044",
    "name": "Bagumbayan National High School Gym",
    "barangay": "Bagumbayan",
    "lat": 14.6581,
    "lon": 120.9381,
    "elevation": 3.2,
    "lgu": "Navotas",
    "district": "Navotas",
    "capacity": 2850,
    "source": "synthetic",
    "official": false
  },
  {
    "node_id": "MM_EC_045",
    "name": "Tangos Elementary School Hall",
    "barangay": "Tangos",
    "lat": 14.6648,
    "lon": 120.9459,
    "elevation": 4.1,
    "lgu": "Navotas",
    "district": "Navotas",
    "capacity": 2850,
    "source": "synthetic",
    "official": false
  },
  {
    "node_id": "MM_EC_046",
    "name": "Northbay Boulevard Covered Court",
    "barangay": "Northbay Blvd. South",
    "lat": 14.6527,
    "lon": 120.9415,
    "elevation": 3.6,
    "lgu": "Navotas",
    "district": "Navotas",
    "capacity": 2850,
    "source": "synthetic",
    "official": false
  },
  {
    "node_id": "MM_EC_047",
    "name": "Sipac-Almacen Elementary School",
    "barangay": "Sipac-Almacen",
    "lat": 14.6704,
    "lon": 120.9392,
    "elevation": 3.9,
    "lgu": "Navotas",
    "district": "Navotas",
    "capacity": 2850,
    "source": "synthetic",
    "official": false
  },
  {
    "node_id": "MM_EC_048",
    "name": "Daanghari Barangay Hall Gymnasium",
    "barangay": "Daanghari",
    "lat": 14.6566,
    "lon": 120.9402,
    "elevation": 3.4,
    "lgu": "Navotas",
    "district": "Navotas",
    "capacity": 2850,
    "source": "synthetic",
    "official": false
  },
  {
    "node_id": "MM_EC_049",
    "name": "Tanza Navotas Covered Court",
    "barangay": "Tanza",
    "lat": 14.6683,
    "lon": 120.9441,
    "elevation": 4.2,
    "lgu": "Navotas",
    "district": "Navotas",
    "capacity": 2850,
    "source": "synthetic",
    "official": false
  },
  {
    "node_id": "MM_EC_050",
    "name": "Don Bosco Covered Court",
    "barangay": "Don Bosco",
    "lat": 14.4792,
    "lon": 121.0237,
    "elevation": 18.6,
    "lgu": "Parañaque",
    "district": "Parañaque",
    "capacity": 2700,
    "source": "synthetic",
    "official": false
  },
  {
    "node_id": "MM_EC_051",
    "name": "BF Parañaque Gymnasium",
    "barangay": "BF Homes",
    "lat": 14.4626,
    "lon": 121.0159,
    "elevation": 22.3,
    "lgu": "Parañaque",
    "district": "Parañaque",
    "capacity": 2700,
    "source": "synthetic",
    "official": false
  },
  {
    "node_id": "MM_EC_052",
    "name": "Sucat National High School Hall",
    "barangay": "Sucat",
    "lat": 14.4915,
    "lon": 121.0315,
    "elevation": 17.9,
    "lgu": "Parañaque",
    "district": "Parañaque",
    "capacity": 2700,
    "source": "synthetic",
    "official": false
  },
  {
    "node_id": "MM_EC_053",
    "name": "Moonwalk Elementary School Gymnasium",
    "barangay": "Moonwalk",
    "lat": 14.4537,
    "lon": 121.0192,
    "elevation": 20.1,
    "lgu": "Parañaque",
    "district": "Parañaque",
    "capacity": 2700,
    "source": "synthetic",
    "official": false
  },
  {
    "node_id": "MM_EC_054",
    "name": "San Dionisio Elementary School Hall",
    "barangay": "San Dionisio",
    "lat": 14.5026,
    "lon": 121.0271,
    "elevation": 16.4,
    "lgu": "Parañaque",
    "district": "Parañaque",
    "capacity": 2700,
    "source": "synthetic",
    "official": false
  },
  {
    "node_id": "MM_EC_055",
    "name": "La Huerta Barangay Hall Gymnasium",
    "barangay": "La Huerta",
    "lat": 14.4459,
    "lon": 121.0148,
    "elevation": 21.7,
    "lgu": "Parañaque",
    "district": "Parañaque",
    "capacity": 2700,
    "source": "synthetic",
    "official": false
  },
  {
    "node_id": "MM_EC_056",
    "name": "Pasay City North Elementary School Hall",
    "barangay": "Malibay",
    "lat": 14.5381,
    "lon": 121.0027,
    "elevation": 6.8,
    "lgu": "Pasay",
    "district": "Pasay",
    "capacity": 2650,
    "source": "synthetic",
    "official": false
  },
  {
    "node_id": "MM_EC_057",
    "name": "F.B. Harrison Elementary School Gym",
    "barangay": "Libertad",
    "lat": 14.5315,
    "lon": 120.9981,
    "elevation": 5.9,
    "lgu": "Pasay",
    "district": "Pasay",
    "capacity": 2650,
    "source": "synthetic",
    "official": false
  },
  {
    "node_id": "MM_EC_058",
    "name": "Maricaban Covered Court",
    "barangay": "Maricaban",
    "lat": 14.5426,
    "lon": 121.0071,
    "elevation": 7.4,
    "lgu": "Pasay",
    "district": "Pasay",
    "capacity": 2700,
    "source": "synthetic",
    "official": false
  },
  {
    "node_id": "MM_EC_059",
    "name": "San Jose Elementary School Hall",
    "barangay": "San Jose",
    "lat": 14.5292,
    "lon": 121.0104,
    "elevation": 6.2,
    "lgu": "Pasay",
    "district": "Pasay",
    "capacity": 2700,
    "source": "synthetic",
    "official": false
  },
  {
    "node_id": "MM_EC_060",
    "name": "Quirino Elementary School Gymnasium",
    "barangay": "Quirino",
    "lat": 14.5459,
    "lon": 120.9948,
    "elevation": 7.1,
    "lgu": "Pasay",
    "district": "Pasay",
    "capacity": 2750,
    "source": "synthetic",
    "official": false
  },
  {
    "node_id": "MM_EC_061",
    "name": "Baclaran Elementary School Hall",
    "barangay": "Baclaran",
    "lat": 14.5337,
    "lon": 121.0018,
    "elevation": 5.7,
    "lgu": "Pasay",
    "district": "Pasay",
    "capacity": 2750,
    "source": "synthetic",
    "official": false
  },
  {
    "node_id": "MM_EC_062",
    "name": "San Isidro Elementary Covered Court",
    "barangay": "San Isidro",
    "lat": 14.5404,
    "lon": 121.0086,
    "elevation": 6.9,
    "lgu": "Pasay",
    "district": "Pasay",
    "capacity": 2750,
    "source": "synthetic",
    "official": false
  },
  {
    "node_id": "MM_EC_063",
    "name": "Pasig City Science High School Hall",
    "barangay": "Kapasigan",
    "lat": 14.5715,
    "lon": 121.0859,
    "elevation": 16.4,
    "lgu": "Pasig",
    "district": "Pasig",
    "capacity": 2750,
    "source": "synthetic",
    "official": false
  },
  {
    "node_id": "MM_EC_064",
    "name": "Bagong Ilog Elementary School Gym",
    "barangay": "Bagong Ilog",
    "lat": 14.5637,
    "lon": 121.0937,
    "elevation": 14.8,
    "lgu": "Pasig",
    "district": "Pasig",
    "capacity": 2750,
    "source": "synthetic",
    "official": false
  },
  {
    "node_id": "MM_EC_065",
    "name": "Kapitolyo Elementary School Hall",
    "barangay": "Kapitolyo",
    "lat": 14.5792,
    "lon": 121.0781,
    "elevation": 18.2,
    "lgu": "Pasig",
    "district": "Pasig",
    "capacity": 2750,
    "source": "synthetic",
    "official": false
  },
  {
    "node_id": "MM_EC_066",
    "name": "Caniogan Covered Court",
    "barangay": "Caniogan",
    "lat": 14.5559,
    "lon": 121.0915,
    "elevation": 13.6,
    "lgu": "Pasig",
    "district": "Pasig",
    "capacity": 2750,
    "source": "synthetic",
    "official": false
  },
  {
    "node_id": "MM_EC_067",
    "name": "Pineda Elementary School Hall",
    "barangay": "Pineda",
    "lat": 14.5848,
    "lon": 121.0826,
    "elevation": 17.1,
    "lgu": "Pasig",
    "district": "Pasig",
    "capacity": 2750,
    "source": "synthetic",
    "official": false
  },
  {
    "node_id": "MM_EC_068",
    "name": "Maybunga Elementary School Gymnasium",
    "barangay": "Maybunga",
    "lat": 14.5481,
    "lon": 121.0871,
    "elevation": 15.3,
    "lgu": "Pasig",
    "district": "Pasig",
    "capacity": 2750,
    "source": "synthetic",
    "official": false
  },
  {
    "node_id": "MM_EC_069",
    "name": "Pateros Elementary School Hall",
    "barangay": "Pateros",
    "lat": 14.5481,
    "lon": 121.0681,
    "elevation": 12.7,
    "lgu": "Pateros",
    "district": "Pateros",
    "capacity": 2750,
    "source": "synthetic",
    "official": false
  },
  {
    "node_id": "MM_EC_070",
    "name": "Sta. Ana de Sapa Elementary School",
    "barangay": "San Pedro",
    "lat": 14.5537,
    "lon": 121.0715,
    "elevation": 11.9,
    "lgu": "Pateros",
    "district": "Pateros",
    "capacity": 2550,
    "source": "synthetic",
    "official": false
  },
  {
    "node_id": "MM_EC_071",
    "name": "Aguho Elementary School Gymnasium",
    "barangay": "Aguho",
    "lat": 14.5415,
    "lon": 121.0648,
    "elevation": 13.4,
    "lgu": "Pateros",
    "district": "Pateros",
    "capacity": 2550,
    "source": "synthetic",
    "official": false
  },
  {
    "node_id": "MM_EC_072",
    "name": "Tabacalera Covered Court",
    "barangay": "Sto. Rosario",
    "lat": 14.5571,
    "lon": 121.0692,
    "elevation": 12.2,
    "lgu": "Pateros",
    "district": "Pateros",
    "capacity": 2550,
    "source": "synthetic",
    "official": false
  },
  {
    "node_id": "MM_EC_073",
    "name": "San Pedro Community Centre",
    "barangay": "San Pedro",
    "lat": 14.5492,
    "lon": 121.0704,
    "elevation": 12.8,
    "lgu": "Pateros",
    "district": "Pateros",
    "capacity": 2550,
    "source": "synthetic",
    "official": false
  },
  {
    "node_id": "MM_EC_074",
    "name": "Martires del '96 Elementary School Hall",
    "barangay": "Martires del '96",
    "lat": 14.5506,
    "lon": 121.0671,
    "elevation": 12.4,
    "lgu": "Pateros",
    "district": "Pateros",
    "capacity": 2550,
    "source": "synthetic",
    "official": false
  },
  {
    "node_id": "MM_EC_075",
    "name": "Sto. Rosario Elementary School Hall",
    "barangay": "Sto. Rosario",
    "lat": 14.5452,
    "lon": 121.0695,
    "elevation": 11.8,
    "lgu": "Pateros",
    "district": "Pateros",
    "capacity": 2550,
    "source": "synthetic",
    "official": false
  },
  {
    "node_id": "MM_EC_076",
    "name": "QC Sports Club Covered Court",
    "barangay": "New Era",
    "lat": 14.6771,
    "lon": 121.0348,
    "elevation": 48.6,
    "lgu": "Quezon City",
    "district": "Quezon City",
    "capacity": 2550,
    "source": "synthetic",
    "official": false
  },
  {
    "node_id": "MM_EC_077",
    "name": "Batasan Hills National HS Gymnasium",
    "barangay": "Batasan Hills",
    "lat": 14.6848,
    "lon": 121.0237,
    "elevation": 52.1,
    "lgu": "Quezon City",
    "district": "Quezon City",
    "capacity": 2550,
    "source": "synthetic",
    "official": false
  },
  {
    "node_id": "MM_EC_078",
    "name": "Commonwealth Elementary School Hall",
    "barangay": "Commonwealth",
    "lat": 14.6626,
    "lon": 121.0459,
    "elevation": 45.3,
    "lgu": "Quezon City",
    "district": "Quezon City",
    "capacity": 2600,
    "source": "synthetic",
    "official": false
  },
  {
    "node_id": "MM_EC_079",
    "name": "Holy Spirit Elementary School Gym",
    "barangay": "Holy Spirit",
    "lat": 14.6915,
    "lon": 121.0181,
    "elevation": 55.8,
    "lgu": "Quezon City",
    "district": "Quezon City",
    "capacity": 2600,
    "source": "synthetic",
    "official": false
  },
  {
    "node_id": "MM_EC_080",
    "name": "Project 4 Elementary School Hall",
    "barangay": "Project 4",
    "lat": 14.6537,
    "lon": 121.0526,
    "elevation": 42.7,
    "lgu": "Quezon City",
    "district": "Quezon City",
    "capacity": 1350,
    "source": "synthetic",
    "official": false
  },
  {
    "node_id": "MM_EC_081",
    "name": "Don A. Roces Elementary Covered Court",
    "barangay": "Kamuning",
    "lat": 14.6781,
    "lon": 121.0415,
    "elevation": 47.2,
    "lgu": "Quezon City",
    "district": "Quezon City",
    "capacity": 1300,
    "source": "synthetic",
    "official": false
  },
  {
    "node_id": "MM_EC_082",
    "name": "San Juan NHS Covered Court",
    "barangay": "Salapan",
    "lat": 14.6026,
    "lon": 121.0359,
    "elevation": 34.8,
    "lgu": "San Juan",
    "district": "San Juan",
    "capacity": 1300,
    "source": "synthetic",
    "official": false
  },
  {
    "node_id": "MM_EC_083",
    "name": "Little Baguio Elementary School Hall",
    "barangay": "Little Baguio",
    "lat": 14.6092,
    "lon": 121.0292,
    "elevation": 36.2,
    "lgu": "San Juan",
    "district": "San Juan",
    "capacity": 1300,
    "source": "synthetic",
    "official": false
  },
  {
    "node_id": "MM_EC_084",
    "name": "Corazon de Jesus Elementary School Gym",
    "barangay": "Corazon de Jesus",
    "lat": 14.5959,
    "lon": 121.0415,
    "elevation": 33.4,
    "lgu": "San Juan",
    "district": "San Juan",
    "capacity": 1350,
    "source": "synthetic",
    "official": false
  },
  {
    "node_id": "MM_EC_085",
    "name": "Kabayanan Elementary School Hall",
    "barangay": "Kabayanan",
    "lat": 14.6115,
    "lon": 121.0326,
    "elevation": 35.9,
    "lgu": "San Juan",
    "district": "San Juan",
    "capacity": 1350,
    "source": "synthetic",
    "official": false
  },
  {
    "node_id": "MM_EC_086",
    "name": "Balong Bato Elementary School Hall",
    "barangay": "Balong Bato",
    "lat": 14.6051,
    "lon": 121.0371,
    "elevation": 37.1,
    "lgu": "San Juan",
    "district": "San Juan",
    "capacity": 1350,
    "source": "synthetic",
    "official": false
  },
  {
    "node_id": "MM_EC_087",
    "name": "Pasadena Covered Court",
    "barangay": "Pasadena",
    "lat": 14.6138,
    "lon": 121.0344,
    "elevation": 36.5,
    "lgu": "San Juan",
    "district": "San Juan",
    "capacity": 1350,
    "source": "synthetic",
    "official": false
  },
  {
    "node_id": "MM_EC_088",
    "name": "Taguig City University Multi-Purpose Hall",
    "barangay": "Central Bicutan",
    "lat": 14.5215,
    "lon": 121.0627,
    "elevation": 15.2,
    "lgu": "Taguig",
    "district": "Taguig",
    "capacity": 3050,
    "source": "synthetic",
    "official": false
  },
  {
    "node_id": "MM_EC_089",
    "name": "Signal Village Elementary School Gym",
    "barangay": "Signal Village",
    "lat": 14.5081,
    "lon": 121.0571,
    "elevation": 14.6,
    "lgu": "Taguig",
    "district": "Taguig",
    "capacity": 3050,
    "source": "synthetic",
    "official": false
  },
  {
    "node_id": "MM_EC_090",
    "name": "Central Bicutan NHS Covered Court",
    "barangay": "Central Bicutan",
    "lat": 14.5348,
    "lon": 121.0692,
    "elevation": 16.8,
    "lgu": "Taguig",
    "district": "Taguig",
    "capacity": 2900,
    "source": "synthetic",
    "official": false
  },
  {
    "node_id": "MM_EC_091",
    "name": "Ususan Elementary School Hall",
    "barangay": "Ususan",
    "lat": 14.5159,
    "lon": 121.0715,
    "elevation": 13.9,
    "lgu": "Taguig",
    "district": "Taguig",
    "capacity": 2900,
    "source": "synthetic",
    "official": false
  },
  {
    "node_id": "MM_EC_092",
    "name": "Western Bicutan Covered Court",
    "barangay": "Western Bicutan",
    "lat": 14.5426,
    "lon": 121.0637,
    "elevation": 17.4,
    "lgu": "Taguig",
    "district": "Taguig",
    "capacity": 2900,
    "source": "synthetic",
    "official": false
  },
  {
    "node_id": "MM_EC_093",
    "name": "Bagong Tanyag Elementary School Hall",
    "barangay": "Bagong Tanyag",
    "lat": 14.4937,
    "lon": 121.0548,
    "elevation": 13.1,
    "lgu": "Taguig",
    "district": "Taguig",
    "capacity": 2900,
    "source": "synthetic",
    "official": false
  },
  {
    "node_id": "MM_EC_094",
    "name": "Valenzuela City Sports Complex Hall",
    "barangay": "Karuhatan",
    "lat": 14.7015,
    "lon": 120.9715,
    "elevation": 11.8,
    "lgu": "Valenzuela",
    "district": "Valenzuela",
    "capacity": 2900,
    "source": "synthetic",
    "official": false
  },
  {
    "node_id": "MM_EC_095",
    "name": "Parada Elementary School Gymnasium",
    "barangay": "Parada",
    "lat": 14.6937,
    "lon": 120.9648,
    "elevation": 12.4,
    "lgu": "Valenzuela",
    "district": "Valenzuela",
    "capacity": 2900,
    "source": "synthetic",
    "official": false
  },
  {
    "node_id": "MM_EC_096",
    "name": "Lawang Bato National HS Hall",
    "barangay": "Lawang Bato",
    "lat": 14.7092,
    "lon": 120.9781,
    "elevation": 13.1,
    "lgu": "Valenzuela",
    "district": "Valenzuela",
    "capacity": 2900,
    "source": "synthetic",
    "official": false
  },
  {
    "node_id": "MM_EC_097",
    "name": "Arkong Bato Elementary School Hall",
    "barangay": "Arkong Bato",
    "lat": 14.7159,
    "lon": 120.9692,
    "elevation": 14.7,
    "lgu": "Valenzuela",
    "district": "Valenzuela",
    "capacity": 2900,
    "source": "synthetic",
    "official": false
  },
  {
    "node_id": "MM_EC_098",
    "name": "Balintawak Elementary School Gymnasium",
    "barangay": "Balintawak",
    "lat": 14.6871,
    "lon": 120.9759,
    "elevation": 10.9,
    "lgu": "Valenzuela",
    "district": "Valenzuela",
    "capacity": 2900,
    "source": "synthetic",
    "official": false
  },
  {
    "node_id": "MM_EC_099",
    "name": "Punturin National HS Covered Court",
    "barangay": "Punturin",
    "lat": 14.7226,
    "lon": 120.9627,
    "elevation": 15.2,
    "lgu": "Valenzuela",
    "district": "Valenzuela",
    "capacity": 2900,
    "source": "synthetic",
    "official": false
  },
  {
    "node_id": "MM_EC_100",
    "name": "Malinta Elementary School Hall",
    "barangay": "Malinta",
    "lat": 14.6981,
    "lon": 120.9837,
    "elevation": 11.3,
    "lgu": "Valenzuela",
    "district": "Valenzuela",
    "capacity": 2250,
    "source": "synthetic",
    "official": false
  }
]